[
  {
    "name": "Mumbai",
    "state": "Maharashtra",
    "population": 20411000,
    "coordinates": {
      "latitude": 19.076,
      "longitude": 72.8777
    }
  },
  {
    "name": "Delhi",
    "state": "Delhi",
    "population": 31870000,
    "coordinates": {
      "latitude": 28.6139,
      "longitude": 77.209
    }
  },
  {
    "name": "Bangalore",
    "state": "Karnataka",
    "population": 13700000,
    "coordinates": {
      "latitude": 12.9716,
      "longitude": 77.5946
    }
  },
  {
    "name": "Hyderabad",
    "state": "Telangana",
    "population": 12000000,
    "coordinates": {
      "latitude": 17.385,
      "longitude": 78.4867
    }
  },
  {
    "name": "Chennai",
    "state": "Tamil Nadu",
    "population": 11300000,
    "coordinates": {
      "latitude": 13.0827,
      "longitude": 80.2707
    }
  },
  {
    "name": "Kolkata",
    "state": "West Bengal",
    "population": 14900000,
    "coordinates": {
      "latitude": 22.5726,
      "longitude": 88.3639
    }
  },
  {
    "name": "Ahmedabad",
    "state": "Gujarat",
    "population": 8410000,
    "coordinates": {
      "latitude": 23.0225,
      "longitude": 72.5714
    }
  },
  {
    "name": "Pune",
    "state": "Maharashtra",
    "population": 7600000,
    "coordinates": {
      "latitude": 18.5204,
      "longitude": 73.8567
    }
  },
  {
    "name": "Jaipur",
    "state": "Rajasthan",
    "population": 4700000,
    "coordinates": {
      "latitude": 26.9124,
      "longitude": 75.7873
    }
  },
  {
    "name": "Lucknow",
    "state": "Uttar Pradesh",
    "population": 3600000,
    "coordinates": {
      "latitude": 26.8467,
      "longitude": 80.9462
    }
  },
  {
    "name": "Mumbai",
    "state": "Maharashtra",
    "population": 20411000,
    "coordinates": {
      "latitude": 19.076,
      "longitude": 72.8777
    }
  },
  {
    "name": "Delhi",
    "state": "Delhi",
    "population": 31870000,
    "coordinates": {
      "latitude": 28.6139,
      "longitude": 77.209
    }
  },
  {
    "name": "Bangalore",
    "state": "Karnataka",
    "population": 13700000,
    "coordinates": {
      "latitude": 12.9716,
      "longitude": 77.5946
    }
  },
  {
    "name": "Hyderabad",
    "state": "Telangana",
    "population": 12000000,
    "coordinates": {
      "latitude": 17.385,
      "longitude": 78.4867
    }
  },
  {
    "name": "Chennai",
    "state": "Tamil Nadu",
    "population": 11300000,
    "coordinates": {
      "latitude": 13.0827,
      "longitude": 80.2707
    }
  },
  {
    "name": "Kolkata",
    "state": "West Bengal",
    "population": 14900000,
    "coordinates": {
      "latitude": 22.5726,
      "longitude": 88.3639
    }
  },
  {
    "name": "Ahmedabad",
    "state": "Gujarat",
    "population": 8410000,
    "coordinates": {
      "latitude": 23.0225,
      "longitude": 72.5714
    }
  },
  {
    "name": "Pune",
    "state": "Maharashtra",
    "population": 7600000,
    "coordinates": {
      "latitude": 18.5204,
      "longitude": 73.8567
    }
  },
  {
    "name": "Jaipur",
    "state": "Rajasthan",
    "population": 4700000,
    "coordinates": {
      "latitude": 26.9124,
      "longitude": 75.7873
    }
  },
  {
    "name": "Lucknow",
    "state": "Uttar Pradesh",
    "population": 3600000,
    "coordinates": {
      "latitude": 26.8467,
      "longitude": 80.9462
    }
  },
  {
    "name": "Mumbai",
    "state": "Maharashtra",
    "population": 20411000,
    "coordinates": {
      "latitude": 19.076,
      "longitude": 72.8777
    }
  },
  {
    "name": "Delhi",
    "state": "Delhi",
    "population": 31870000,
    "coordinates": {
      "latitude": 28.6139,
      "longitude": 77.209
    }
  },
  {
    "name": "Bangalore",
    "state": "Karnataka",
    "population": 13700000,
    "coordinates": {
      "latitude": 12.9716,
      "longitude": 77.5946
    }
  },
  {
    "name": "Hyderabad",
    "state": "Telangana",
    "population": 12000000,
    "coordinates": {
      "latitude": 17.385,
      "longitude": 78.4867
    }
  },
  {
    "name": "Chennai",
    "state": "Tamil Nadu",
    "population": 11300000,
    "coordinates": {
      "latitude": 13.0827,
      "longitude": 80.2707
    }
  },
  {
    "name": "Kolkata",
    "state": "West Bengal",
    "population": 14900000,
    "coordinates": {
      "latitude": 22.5726,
      "longitude": 88.3639
    }
  },
  {
    "name": "Ahmedabad",
    "state": "Gujarat",
    "population": 8410000,
    "coordinates": {
      "latitude": 23.0225,
      "longitude": 72.5714
    }
  },
  {
    "name": "Pune",
    "state": "Maharashtra",
    "population": 7600000,
    "coordinates": {
      "latitude": 18.5204,
      "longitude": 73.8567
    }
  },
  {
    "name": "Jaipur",
    "state": "Rajasthan",
    "population": 4700000,
    "coordinates": {
      "latitude": 26.9124,
      "longitude": 75.7873
    }
  },
  {
    "name": "Lucknow",
    "state": "Uttar Pradesh",
    "population": 3600000,
    "coordinates": {
      "latitude": 26.8467,
      "longitude": 80.9462
    }
  },
  {
    "name": "Mumbai",
    "state": "Maharashtra",
    "population": 20411000,
    "coordinates": {
      "latitude": 19.076,
      "longitude": 72.8777
    }
  },
  {
    "name": "Delhi",
    "state": "Delhi",
    "population": 31870000,
    "coordinates": {
      "latitude": 28.6139,
      "longitude": 77.209
    }
  },
  {
    "name": "Bangalore",
    "state": "Karnataka",
    "population": 13700000,
    "coordinates": {
      "latitude": 12.9716,
      "longitude": 77.5946
    }
  },
  {
    "name": "Hyderabad",
    "state": "Telangana",
    "population": 12000000,
    "coordinates": {
      "latitude": 17.385,
      "longitude": 78.4867
    }
  },
  {
    "name": "Chennai",
    "state": "Tamil Nadu",
    "population": 11300000,
    "coordinates": {
      "latitude": 13.0827,
      "longitude": 80.2707
    }
  },
  {
    "name": "Kolkata",
    "state": "West Bengal",
    "population": 14900000,
    "coordinates": {
      "latitude": 22.5726,
      "longitude": 88.3639
    }
  },
  {
    "name": "Ahmedabad",
    "state": "Gujarat",
    "population": 8410000,
    "coordinates": {
      "latitude": 23.0225,
      "longitude": 72.5714
    }
  },
  {
    "name": "Pune",
    "state": "Maharashtra",
    "population": 7600000,
    "coordinates": {
      "latitude": 18.5204,
      "longitude": 73.8567
    }
  },
  {
    "name": "Jaipur",
    "state": "Rajasthan",
    "population": 4700000,
    "coordinates": {
      "latitude": 26.9124,
      "longitude": 75.7873
    }
  },
  {
    "name": "Lucknow",
    "state": "Uttar Pradesh",
    "population": 3600000,
    "coordinates": {
      "latitude": 26.8467,
      "longitude": 80.9462
    }
  }
]
